{
 "Mexico City": {
  "name": "Estadio Azteca",
  "city": "Mexico City",
  "country": "Mexico",
  "altitude_m": 2240,
  "avg_temp_june": 20,
  "avg_humidity": 55,
  "climate_type": "Subtropical Highland",
  "timezone_utc": -6,
  "esi": 7.5,
  "latitude": 19.3,
  "longitude": -99.15,
  "has_roof": false,
  "key": "Mexico City"
 },
 "Guadalajara": {
  "name": "Estadio Akron",
  "city": "Guadalajara",
  "country": "Mexico",
  "altitude_m": 1566,
  "avg_temp_june": 24,
  "avg_humidity": 60,
  "climate_type": "Humid Subtropical",
  "timezone_utc": -6,
  "esi": 6.6,
  "latitude": 20.68,
  "longitude": -103.46,
  "has_roof": false,
  "key": "Guadalajara"
 },
 "Monterrey": {
  "name": "Estadio BBVA",
  "city": "Monterrey",
  "country": "Mexico",
  "altitude_m": 540,
  "avg_temp_june": 28,
  "avg_humidity": 68,
  "climate_type": "Semi-arid",
  "timezone_utc": -6,
  "esi": 7.0,
  "latitude": 25.67,
  "longitude": -100.27,
  "has_roof": false,
  "key": "Monterrey"
 },
 "Miami": {
  "name": "Hard Rock Stadium",
  "city": "Miami",
  "country": "USA",
  "altitude_m": 2,
  "avg_temp_june": 29,
  "avg_humidity": 75,
  "climate_type": "Tropical Monsoon",
  "timezone_utc": -4,
  "esi": 9.1,
  "latitude": 25.96,
  "longitude": -80.24,
  "has_roof": true,
  "key": "Miami"
 },
 "Houston": {
  "name": "NRG Stadium",
  "city": "Houston",
  "country": "USA",
  "altitude_m": 13,
  "avg_temp_june": 28,
  "avg_humidity": 75,
  "climate_type": "Humid Subtropical",
  "timezone_utc": -5,
  "esi": 8.7,
  "latitude": 29.68,
  "longitude": -95.41,
  "has_roof": true,
  "key": "Houston"
 },
 "Dallas": {
  "name": "AT&T Stadium",
  "city": "Dallas",
  "country": "USA",
  "altitude_m": 184,
  "avg_temp_june": 30,
  "avg_humidity": 65,
  "climate_type": "Humid Subtropical",
  "timezone_utc": -5,
  "esi": 8.0,
  "latitude": 32.75,
  "longitude": -97.09,
  "has_roof": true,
  "key": "Dallas"
 },
 "Atlanta": {
  "name": "Mercedes-Benz Stadium",
  "city": "Atlanta",
  "country": "USA",
  "altitude_m": 320,
  "avg_temp_june": 27,
  "avg_humidity": 70,
  "climate_type": "Humid Subtropical",
  "timezone_utc": -4,
  "esi": 7.2,
  "latitude": 33.76,
  "longitude": -84.4,
  "has_roof": true,
  "key": "Atlanta"
 },
 "New York / New Jersey": {
  "name": "MetLife Stadium",
  "city": "New Jersey",
  "country": "USA",
  "altitude_m": 7,
  "avg_temp_june": 25,
  "avg_humidity": 65,
  "climate_type": "Humid Continental",
  "timezone_utc": -4,
  "esi": 5.8,
  "latitude": 40.81,
  "longitude": -74.07,
  "has_roof": false,
  "key": "New York / New Jersey"
 },
 "Boston": {
  "name": "Gillette Stadium",
  "city": "Boston",
  "country": "USA",
  "altitude_m": 43,
  "avg_temp_june": 22,
  "avg_humidity": 70,
  "climate_type": "Humid Continental",
  "timezone_utc": -4,
  "esi": 5.6,
  "latitude": 42.09,
  "longitude": -71.26,
  "has_roof": false,
  "key": "Boston"
 },
 "Philadelphia": {
  "name": "Lincoln Financial Field",
  "city": "Philadelphia",
  "country": "USA",
  "altitude_m": 12,
  "avg_temp_june": 25,
  "avg_humidity": 68,
  "climate_type": "Humid Continental",
  "timezone_utc": -4,
  "esi": 6.0,
  "latitude": 39.9,
  "longitude": -75.17,
  "has_roof": false,
  "key": "Philadelphia"
 },
 "Kansas City": {
  "name": "Arrowhead Stadium",
  "city": "Kansas City",
  "country": "USA",
  "altitude_m": 264,
  "avg_temp_june": 26,
  "avg_humidity": 70,
  "climate_type": "Humid Continental",
  "timezone_utc": -5,
  "esi": 6.2,
  "latitude": 39.05,
  "longitude": -94.48,
  "has_roof": false,
  "key": "Kansas City"
 },
 "Los Angeles": {
  "name": "SoFi Stadium",
  "city": "Los Angeles",
  "country": "USA",
  "altitude_m": 30,
  "avg_temp_june": 22,
  "avg_humidity": 65,
  "climate_type": "Mediterranean",
  "timezone_utc": -7,
  "esi": 4.5,
  "latitude": 33.95,
  "longitude": -118.34,
  "has_roof": true,
  "key": "Los Angeles"
 },
 "San Francisco Bay Area": {
  "name": "Levi's Stadium",
  "city": "San Francisco",
  "country": "USA",
  "altitude_m": 15,
  "avg_temp_june": 20,
  "avg_humidity": 65,
  "climate_type": "Mediterranean",
  "timezone_utc": -7,
  "esi": 3.8,
  "latitude": 37.4,
  "longitude": -121.97,
  "has_roof": false,
  "key": "San Francisco Bay Area"
 },
 "Seattle": {
  "name": "Lumen Field",
  "city": "Seattle",
  "country": "USA",
  "altitude_m": 52,
  "avg_temp_june": 16,
  "avg_humidity": 70,
  "climate_type": "Marine West Coast",
  "timezone_utc": -7,
  "esi": 3.4,
  "latitude": 47.6,
  "longitude": -122.33,
  "has_roof": false,
  "key": "Seattle"
 },
 "Vancouver": {
  "name": "BC Place",
  "city": "Vancouver",
  "country": "Canada",
  "altitude_m": 70,
  "avg_temp_june": 16,
  "avg_humidity": 75,
  "climate_type": "Marine West Coast",
  "timezone_utc": -7,
  "esi": 3.2,
  "latitude": 49.28,
  "longitude": -123.11,
  "has_roof": true,
  "key": "Vancouver"
 },
 "Toronto": {
  "name": "BMO Field",
  "city": "Toronto",
  "country": "Canada",
  "altitude_m": 76,
  "avg_temp_june": 22,
  "avg_humidity": 70,
  "climate_type": "Humid Continental",
  "timezone_utc": -4,
  "esi": 5.2,
  "latitude": 43.63,
  "longitude": -79.42,
  "has_roof": false,
  "key": "Toronto"
 }
}